City_ID,City,Lat,Lng,Max Temp,Humidity,Cloudiness,Wind Speed,Country,Date
0,russell,32.3502,-85.1999,282.75,75,0,0.0,US,1675569096
1,tasiilaq,65.6145,-37.6368,269.24,91,100,12.72,GL,1675569097
2,assiniboia,49.6334,-105.9845,269.05,86,52,4.12,CA,1675569059
3,albany,42.6001,-73.9662,265.75,53,52,2.57,US,1675569012
4,rikitea,-23.1203,-134.9692,298.99,77,27,6.53,PF,1675569020
5,matamoros,25.5333,-103.25,293.21,38,0,1.54,MX,1675569098
6,dudinka,69.4058,86.1778,262.94,95,100,4.2,RU,1675569099
7,san patricio,28.017,-97.5169,288.06,79,1,2.4,US,1675569099
8,soavinandriana,-19.1667,46.7333,289.28,93,100,2.19,MG,1675569100
9,butaritari,3.0707,172.7902,300.4,82,81,8.13,KI,1675569035
10,sitka,57.0531,-135.33,276.09,87,100,5.14,US,1675569101
11,khatanga,71.9667,102.5,232.71,100,52,2.02,RU,1675569102
12,cape town,-33.9258,18.4232,294.75,88,75,5.14,ZA,1675568847
13,ust-nera,64.5667,143.2,243.72,97,100,0.99,RU,1675569102
14,rancho palos verdes,33.7445,-118.387,288.79,84,0,4.47,US,1675569103
15,atuona,-9.8,-139.0333,299.48,73,23,8.22,PF,1675569103
16,sao filipe,14.8961,-24.4956,294.51,63,49,6.02,CV,1675568999
17,hasaki,35.7333,140.8333,284.37,50,23,5.43,JP,1675569029
18,svetlogorsk,52.6333,29.7333,267.35,93,100,5.65,BY,1675569104
19,busselton,-33.65,115.3333,304.17,29,28,4.53,AU,1675569032
20,thinadhoo,0.5333,72.9333,299.59,70,25,4.24,MV,1675569105
21,port alfred,-33.5906,26.891,294.92,77,65,3.91,ZA,1675569014
22,bluff,-46.6,168.3333,288.56,92,100,3.18,NZ,1675569031
23,hobart,-42.8794,147.3294,298.74,46,20,6.17,AU,1675568962
24,terrace,54.5163,-128.6035,277.1,93,100,3.6,CA,1675569107
25,blackwater,-23.5833,148.8833,307.2,41,100,3.99,AU,1675569107
26,new norfolk,-42.7826,147.0587,298.55,42,0,2.68,AU,1675569108
27,cherskiy,68.75,161.3,234.84,100,95,0.71,RU,1675569109
28,norman wells,65.282,-126.8329,247.17,70,75,2.06,CA,1675569109
29,avarua,-21.2078,-159.775,302.18,79,40,7.2,CK,1675569039
30,muros,42.7762,-9.0603,280.98,81,1,5.11,ES,1675569110
31,mogwase,-25.185,27.2665,290.59,87,6,1.64,ZA,1675569110
32,moose factory,51.2585,-80.6094,255.15,85,0,3.6,CA,1675569111
33,zhezkazgan,47.8043,67.7144,268.14,93,100,4.0,KZ,1675569111
34,urucui,-7.2294,-44.5561,296.47,82,11,1.3,BR,1675569112
35,aqtobe,50.2797,57.2072,258.2,78,100,1.0,KZ,1675569112
36,punta arenas,-53.15,-70.9167,284.21,71,20,12.35,CL,1675569013
37,vavuniya,8.7514,80.4971,299.11,73,58,2.44,LK,1675569113
38,hithadhoo,-0.6,73.0833,299.95,71,25,5.5,MV,1675569114
39,dikson,73.5069,80.5464,252.05,99,100,1.59,RU,1675569114
40,mar del plata,-38.0023,-57.5575,292.52,78,0,3.13,AR,1675569115
41,gusev,54.5922,22.1997,269.18,87,95,3.45,RU,1675569115
42,marsh harbour,26.5412,-77.0636,295.74,75,95,12.74,BS,1675569116
43,berlevag,70.8578,29.0864,268.12,68,98,7.72,NO,1675569116
44,zhanaozen,43.3,52.8,270.47,90,100,3.88,KZ,1675569117
45,lebu,-37.6167,-73.65,287.61,94,68,2.99,CL,1675569033
46,chuy,-33.6971,-53.4616,293.27,91,99,7.59,UY,1675569118
47,khani,41.9563,42.9566,267.91,61,93,2.94,GE,1675569118
48,provideniya,64.3833,-173.3,255.04,91,100,4.69,RU,1675569119
49,kailua,21.4022,-157.7394,297.14,82,98,1.34,US,1675569119
50,ribeira grande,38.5167,-28.7,289.69,91,16,4.47,PT,1675569120
51,port elizabeth,-33.918,25.5701,294.44,77,0,1.03,ZA,1675569036
52,hailar,49.2,119.7,253.81,94,91,1.87,CN,1675569121
53,jamestown,42.097,-79.2353,272.9,39,0,5.14,US,1675569006
54,broome,42.2506,-75.833,267.58,53,75,5.36,US,1675569121
55,luanda,-8.8368,13.2343,300.15,78,75,3.6,AO,1675569010
56,durusu,41.3053,28.6767,279.73,90,97,11.18,TR,1675569123
57,tuktoyaktuk,69.4541,-133.0374,230.15,66,0,1.03,CA,1675569124
58,ushuaia,-54.8,-68.3,283.96,76,20,5.14,AR,1675569124
59,nanortalik,60.1432,-45.2371,267.58,65,100,12.59,GL,1675569125
60,lavumisa,-27.31,31.892,294.24,88,95,1.16,SZ,1675569126
61,mataura,-46.1927,168.8643,290.46,94,99,1.57,NZ,1675569127
62,kuytun,54.3419,101.5036,259.63,93,97,0.57,RU,1675569128
63,yumen,40.2833,97.2,272.04,31,100,8.78,CN,1675569128
64,hilo,19.7297,-155.09,297.75,91,100,6.17,US,1675568963
65,beringovskiy,63.05,179.3167,246.08,86,99,6.89,RU,1675569130
66,moba,33.2288,105.0179,277.04,69,97,1.41,CN,1675569130
67,bredasdorp,-34.5322,20.0403,295.49,76,94,2.29,ZA,1675569007
68,yellowknife,62.456,-114.3525,242.44,76,20,2.06,CA,1675568751
69,padang,-0.9492,100.3543,300.18,94,100,0.64,ID,1675569133
70,kristiinankaupunki,62.2743,21.376,269.32,77,99,8.36,FI,1675569134
71,castro,-24.7911,-50.0119,289.43,94,100,2.09,BR,1675569135
72,zhangye,38.9342,100.4517,272.86,34,76,2.03,CN,1675569135
73,saskylakh,71.9167,114.0833,240.05,99,100,1.76,RU,1675569136
74,moerai,-22.4333,-151.3333,299.67,77,16,6.48,PF,1675569137
75,ponta delgada,37.7333,-25.6667,287.55,88,20,3.6,PT,1675569138
76,sinop,41.7711,34.8709,272.28,77,63,3.55,TR,1675569138
77,bandarbeyla,9.4942,50.8122,296.28,73,98,6.4,SO,1675569139
78,mitchell,43.7094,-98.0298,274.14,75,0,5.66,US,1675569003
79,thompson,55.7435,-97.8558,249.24,84,75,0.0,CA,1675569140
80,ketchikan,55.3422,-131.6461,280.41,93,100,7.2,US,1675569048
81,alofi,-19.0595,-169.9187,296.09,94,100,4.12,NU,1675569141
82,puerto ayora,-0.7393,-90.3518,298.46,97,84,2.24,EC,1675569142
83,talnakh,69.4865,88.3972,262.71,95,100,3.34,RU,1675569142
84,ayan,56.45,138.1667,256.14,71,95,0.83,RU,1675569143
85,esperance,-33.8667,121.9,300.77,44,0,4.22,AU,1675569144
86,beira,-19.8436,34.8389,298.2,100,20,1.03,MZ,1675569144
87,okhotsk,59.3833,143.3,251.0,79,66,5.04,RU,1675569145
88,airai,-8.9266,125.4092,293.51,74,97,1.84,TL,1675569146
89,hermanus,-34.4187,19.2345,293.6,95,83,2.54,ZA,1675569147
90,mindelo,16.8901,-24.9804,293.9,68,40,7.2,CV,1675569147
91,faanui,-16.4833,-151.75,300.65,73,30,7.16,PF,1675569148
92,sao gabriel da cachoeira,-0.1303,-67.0892,295.44,99,100,0.63,BR,1675569149
93,coos bay,43.3665,-124.2179,282.12,96,100,2.57,US,1675569149
94,rundu,-17.9333,19.7667,292.05,94,100,1.25,NA,1675569150
95,guerrero negro,27.9769,-114.0611,288.45,75,0,4.49,MX,1675569151
96,victoria,22.2855,114.1577,293.13,81,100,1.34,HK,1675568913
97,altay,47.8667,88.1167,267.36,95,100,0.87,CN,1675569151
98,hamilton,39.1834,-84.5333,279.57,52,0,6.69,US,1675569152
99,barrow,71.2906,-156.7887,244.16,76,100,2.57,US,1675569152
100,severo-kurilsk,50.6789,156.125,271.49,66,96,3.11,RU,1675569153
101,pinheiro,-2.5214,-45.0825,295.74,99,99,0.57,BR,1675569154
102,kahului,20.8947,-156.47,297.51,83,93,5.81,US,1675569154
103,vao,-22.6667,167.4833,299.76,88,100,8.73,NC,1675569155
104,bay roberts,47.5999,-53.2648,265.66,85,100,7.15,CA,1675569156
105,nyurba,63.2842,118.3319,235.14,98,100,1.21,RU,1675569156
106,necochea,-38.5473,-58.7368,287.07,88,0,4.24,AR,1675569005
107,damietta,31.4165,31.8133,285.09,77,19,6.88,EG,1675569157
108,antofagasta,-23.65,-70.4,295.75,77,24,1.07,CL,1675569157
109,lufilufi,-13.8745,-171.5986,300.03,76,97,0.89,WS,1675569158
110,tongliao,43.6125,122.2653,270.52,36,17,3.81,CN,1675569158
111,tiksi,71.6872,128.8694,241.42,100,100,1.4,RU,1675569037
112,roma,43.2128,-75.4557,268.05,56,100,4.63,US,1675569159
113,arlit,18.7369,7.3853,293.02,11,57,3.89,NE,1675569159
114,tiarei,-17.5333,-149.3333,302.16,79,87,6.5,PF,1675569160
115,husavik,66.0449,-17.3389,273.44,76,95,8.41,IS,1675569160
116,saint anthony,45.0205,-93.218,270.09,85,0,2.06,US,1675569161
117,saint george,37.1041,-113.5841,282.56,52,0,1.54,US,1675569020
118,bambous virieux,-20.3428,57.7575,299.94,83,40,2.06,MU,1675569162
119,souillac,-20.5167,57.5167,299.36,83,40,2.06,MU,1675569162
120,longyearbyen,78.2186,15.6401,265.06,53,0,14.4,SJ,1675569163
121,bulancak,40.9372,38.2291,275.05,80,75,1.03,TR,1675569163
122,manali,13.1667,80.2667,299.2,59,9,3.68,IN,1675569163
123,japura,-0.3167,102.35,301.5,75,99,1.57,ID,1675569164
124,saquarema,-22.92,-42.5103,298.39,87,12,2.63,BR,1675569165
125,saint marys,30.7305,-81.5465,289.16,88,31,3.13,US,1675569165
126,upernavik,72.7868,-56.1549,248.19,100,99,1.97,GL,1675569155
127,karratha,-20.7377,116.8463,309.28,34,8,4.23,AU,1675569166
128,roald,62.5833,6.1333,279.44,65,40,6.17,NO,1675569167
129,ponta do sol,32.6667,-17.1,289.66,57,39,3.6,PT,1675569167
130,snezhnogorsk,69.1933,33.2531,259.03,100,92,2.3,RU,1675569168
131,port lincoln,-34.7333,135.8667,294.17,59,20,4.36,AU,1675569168
132,vila velha,-20.3297,-40.2925,299.23,87,0,4.12,BR,1675568961
133,presidente olegario,-18.4178,-46.4181,292.21,89,70,0.7,BR,1675569169
134,coquimbo,-29.9533,-71.3436,292.0,72,0,1.54,CL,1675568932
135,kapaa,22.0752,-159.319,297.33,83,75,8.23,US,1675569017
136,nikolskoye,59.7035,30.7861,267.09,98,91,1.84,RU,1675569032
137,kaputa,-8.4689,29.6619,292.87,88,99,1.43,ZM,1675569170
138,kodiak,57.79,-152.4072,273.88,86,100,1.54,US,1675569037
139,chernyshevskiy,63.0128,112.4714,238.47,96,86,0.8,RU,1675569171
140,svetlyy,54.675,20.1347,271.46,84,41,2.02,RU,1675569172
141,mahebourg,-20.4081,57.7,299.96,83,40,2.06,MU,1675569172
142,yuanping,38.7153,112.7575,276.53,22,3,0.78,CN,1675569173
143,meulaboh,4.1363,96.1285,301.29,66,100,1.62,ID,1675569173
144,bengkulu,-3.8004,102.2655,301.44,68,89,3.91,ID,1675569173
145,gravdal,68.1214,13.5031,278.16,83,100,13.66,NO,1675569174
146,kungurtug,50.5994,97.5228,261.81,90,100,0.38,RU,1675569174
147,ancud,-41.8697,-73.8203,287.23,94,72,0.58,CL,1675569175
148,arraial do cabo,-22.9661,-42.0278,297.56,93,14,2.01,BR,1675569175
149,pointe michel,15.25,-61.3833,298.57,72,7,6.4,DM,1675569176
150,vanavara,60.34,102.2797,254.41,99,98,1.0,RU,1675569177
151,georgetown,5.4112,100.3354,303.12,66,20,2.57,MY,1675569024
152,kamenka,51.3223,42.7678,265.22,96,98,2.69,RU,1675569178
153,watrous,51.6668,-105.4679,267.03,93,92,2.06,CA,1675569178
154,orleans,30.0335,-89.9501,285.14,83,0,3.09,US,1675568946
155,shenxian,36.2411,115.6672,283.37,36,3,7.15,CN,1675569179
156,sawakin,19.1059,37.3321,293.81,72,31,3.25,SD,1675569179
157,egvekinot,66.3167,-179.1667,240.18,88,30,6.19,RU,1675569180
158,fort walton beach,30.4058,-86.6188,287.05,68,0,2.24,US,1675569180
159,qaanaaq,77.484,-69.3632,250.43,66,8,1.14,GL,1675569181
160,makakilo city,21.3469,-158.0858,296.33,72,20,3.6,US,1675569181
161,vaini,-21.2,-175.2,302.24,79,75,5.14,TO,1675569182
162,leningradskiy,69.3833,178.4167,242.28,99,100,1.72,RU,1675569183
163,seoul,37.5683,126.9778,277.91,58,20,2.57,KR,1675569183
164,pita,10.8333,-12.5833,295.06,31,4,1.21,GN,1675569184
165,codogno,45.1619,9.7022,278.82,73,54,4.39,IT,1675569185
166,allingabro,56.465,10.3341,274.3,86,100,7.15,DK,1675569186
167,kasongo,-4.45,26.6667,292.35,99,100,1.64,CD,1675569187
168,olot,42.181,2.4901,282.74,34,0,2.17,ES,1675569188
169,sobolevo,54.4299,31.8996,265.73,95,99,4.57,RU,1675569190
170,oyama,36.3,139.8,281.85,29,16,1.71,JP,1675569192
171,narsaq,60.9167,-46.05,268.27,93,99,3.0,GL,1675569193
172,sembe,1.6481,14.5806,294.0,64,79,1.31,CG,1675569194
173,acarau,-2.8856,-40.12,298.62,87,21,5.4,BR,1675568967
174,henties bay,-22.116,14.2845,290.75,87,99,1.84,NA,1675569195
175,sfantu gheorghe,45.8667,25.7833,267.55,92,100,0.75,RO,1675569196
176,the valley,18.217,-63.0578,298.2,79,6,9.08,AI,1675568918
177,araouane,18.9048,-3.5265,286.66,24,65,5.12,ML,1675569197
178,matay,28.419,30.7792,282.06,60,47,1.15,EG,1675569198
179,ostrovnoy,68.0531,39.5131,258.01,95,95,4.51,RU,1675569198
180,hambantota,6.1241,81.1185,301.34,89,40,4.63,LK,1675569199
181,comodoro rivadavia,-45.8667,-67.5,303.07,21,0,7.72,AR,1675569199
182,iqaluit,63.7506,-68.5145,239.0,62,75,8.75,CA,1675569200
183,uchiza,-8.4592,-76.4633,294.29,96,100,1.13,PE,1675569201
184,lodwar,3.1191,35.5973,298.57,46,86,2.5,KE,1675569202
185,milici,44.1711,19.0903,270.8,94,91,2.86,BA,1675569202
186,east london,-33.0153,27.9116,296.67,88,0,4.12,ZA,1675569203
187,richards bay,-28.783,32.0377,294.86,90,4,1.62,ZA,1675569204
188,pisco,-13.7,-76.2167,295.18,94,100,5.14,PE,1675569204
189,la palma,33.8464,-118.0467,289.99,69,0,0.45,US,1675569205
190,hervey bay,-25.2986,152.8535,301.52,74,62,7.69,AU,1675569206
191,hobyo,5.3505,48.5268,297.61,70,49,6.69,SO,1675569206
192,pangnirtung,66.1451,-65.7125,238.51,99,100,0.68,CA,1675569207
193,fairbanks,64.8378,-147.7164,256.13,87,0,0.0,US,1675569207
194,gat,31.61,34.7642,285.04,100,33,4.86,IL,1675569180
195,nelson bay,-32.7167,152.15,299.26,52,0,2.68,AU,1675569208
196,ukiah,39.1502,-123.2078,284.62,93,100,4.92,US,1675569209
197,saint-joseph,-21.3667,55.6167,300.36,80,92,3.76,RE,1675569209
198,homer,59.6425,-151.5483,272.08,80,100,3.09,US,1675568958
199,george town,5.4112,100.3354,303.12,66,20,2.57,MY,1675569041
200,port macquarie,-31.4333,152.9167,301.42,43,0,4.25,AU,1675569210
201,isangel,-19.55,169.2667,302.36,78,100,6.05,VU,1675569211
202,huilong,31.8111,121.655,283.11,69,57,4.66,CN,1675569211
203,tarauaca,-8.1614,-70.7656,295.3,98,99,1.0,BR,1675569041
204,palanga,55.9175,21.0686,266.16,93,0,0.51,LT,1675569212
205,kavieng,-2.5744,150.7967,301.19,73,100,1.53,PG,1675569043
206,klaksvik,62.2266,-6.589,279.66,76,98,10.31,FO,1675569213
207,krasnoselkup,65.7,82.4667,261.58,95,100,3.98,RU,1675569213
208,clyde river,70.4692,-68.5914,246.28,63,75,11.83,CA,1675569214
209,lagoa,39.05,-27.9833,288.27,88,44,10.17,PT,1675569214
210,alice springs,-23.7,133.8833,300.9,21,0,4.63,AU,1675569215
211,katsuura,35.1333,140.3,283.23,54,48,4.81,JP,1675569215
212,luderitz,-26.6481,15.1594,290.94,84,74,6.43,NA,1675569216
213,ngunguru,-35.6167,174.5,294.46,77,100,4.98,NZ,1675569217
214,torbay,47.6666,-52.7314,265.24,90,100,14.92,CA,1675569217
215,tocopilla,-22.092,-70.1979,295.9,79,25,0.38,CL,1675569217
216,salalah,17.0151,54.0924,293.2,77,20,1.54,OM,1675569218
217,ilulissat,69.2167,-51.1,254.16,55,75,3.09,GL,1675569219
218,mount gambier,-37.8333,140.7667,292.72,51,95,3.3,AU,1675569219
219,qitaihe,45.8,130.85,265.13,88,100,2.35,CN,1675569219
220,namie,37.4833,141.0,281.47,42,4,1.87,JP,1675569139
221,salinas,36.6777,-121.6555,288.61,75,20,7.72,US,1675569100
222,grakhovo,56.0502,51.9676,259.14,95,100,1.03,RU,1675569221
223,shimoda,34.6667,138.95,284.35,53,43,4.3,JP,1675569221
224,tuatapere,-46.1333,167.6833,292.91,81,87,2.94,NZ,1675569222
225,poya,-21.35,165.15,304.79,67,89,4.44,NC,1675569222
226,bantou,26.2151,117.4893,287.86,89,100,0.89,CN,1675569223
227,petatlan,17.5167,-101.2667,295.54,69,0,1.73,MX,1675569223
228,hvide sande,56.0045,8.1294,273.76,96,100,10.72,DK,1675569224
229,sangar,63.9242,127.4739,243.72,95,100,1.32,RU,1675569224
230,santiago del estero,-27.7951,-64.2615,297.31,47,100,0.66,AR,1675569225
231,kavaratti,10.5669,72.642,300.55,68,8,2.08,IN,1675569225
232,suntar,62.1444,117.6319,236.43,95,97,1.84,RU,1675569226
233,barahona,18.2085,-71.1008,296.31,81,0,0.92,DO,1675569226
234,saint-philippe,-21.3585,55.7679,300.92,82,96,4.12,RE,1675569227
235,kibaya,-5.3,36.5667,287.51,95,95,0.66,TZ,1675569227
236,bonavista,48.6499,-53.1147,265.03,71,95,16.47,CA,1675569228
237,constitucion,-35.3333,-72.4167,287.6,96,20,0.81,CL,1675569228
238,dondo,-19.6094,34.7431,297.88,95,35,1.57,MZ,1675569229
239,punta de piedra,7.6176,-71.4916,297.89,53,78,0.77,VE,1675569229
240,kruisfontein,-34.0033,24.7314,292.53,82,0,2.51,ZA,1675569230
241,ermelo,-26.5333,29.9833,285.57,100,40,1.54,ZA,1675569230
242,caravelas,-17.7125,-39.2481,298.71,86,32,4.44,BR,1675569202
243,mobaye,4.319,21.1786,293.3,33,62,0.89,CF,1675569231
244,maunabo,18.0072,-65.8993,298.54,90,28,5.72,PR,1675569231
245,waingapu,-9.6567,120.2641,298.99,84,100,4.21,ID,1675569232
246,sawankhalok,17.316,99.8319,300.09,83,20,1.54,TH,1675569232
247,tautira,-17.7333,-149.15,299.68,80,93,5.83,PF,1675569233
248,olafsvik,64.8945,-23.7142,277.91,96,100,15.85,IS,1675569233
249,batagay,67.6333,134.6333,236.19,95,100,0.45,RU,1675569234
250,fare,-16.7,-151.0167,300.38,77,23,7.01,PF,1675569234
251,ujiie,36.6833,139.9667,280.53,34,1,2.71,JP,1675569235
252,sao francisco,-15.9486,-44.8644,297.08,73,59,0.99,BR,1675569235
253,petropavlovsk-kamchatskiy,53.0452,158.6483,265.48,58,75,1.0,RU,1675569236
254,brownwood,31.7093,-98.9912,282.77,83,0,3.6,US,1675568955
255,novyy urengoy,66.0833,76.6333,257.57,99,89,3.14,RU,1675569237
256,aswan,24.0934,32.907,282.76,37,0,3.09,EG,1675569237
257,aras,42.5617,-2.356,278.57,81,20,5.14,ES,1675569238
258,domoni,-12.2569,44.5319,299.92,81,100,0.92,KM,1675569238
259,tenenkou,14.4572,-4.9169,292.29,17,64,5.33,ML,1675569239
260,emba,48.8264,58.1442,255.16,95,12,3.47,KZ,1675569239
261,whitehorse,60.7161,-135.0538,262.05,83,100,1.03,CA,1675569059
262,skibbereen,51.55,-9.2667,280.43,85,43,4.09,IE,1675569240
263,gympie,-26.1898,152.665,303.59,57,95,4.56,AU,1675569241
264,basoko,1.2391,23.616,293.25,55,30,0.89,CD,1675569242
265,caledon east,43.8691,-79.8669,271.88,79,100,5.98,CA,1675569242
266,dingle,10.9995,122.6711,301.57,71,42,5.76,PH,1675569243
267,abadiania,-16.2042,-48.7069,292.66,94,100,0.83,BR,1675569244
268,mbuguni,-3.5667,36.95,293.94,78,99,0.86,TZ,1675569244
269,san quintin,30.4833,-115.95,287.24,81,4,4.39,MX,1675569245
270,muli,2.9167,73.5667,299.77,71,90,1.21,MV,1675569245
271,chapais,49.7834,-74.8492,254.03,94,100,4.85,CA,1675569246
272,santa rosa,14.3122,121.1114,302.1,70,86,6.22,PH,1675569247
273,tahoua,14.8888,5.2692,295.57,16,2,4.17,NE,1675569247
274,srednekolymsk,67.45,153.6833,237.97,99,100,2.6,RU,1675569248
275,portland,45.5234,-122.6762,282.62,87,100,5.14,US,1675569112
276,fortuna,40.5982,-124.1573,284.63,90,100,9.26,US,1675569249
277,karasjok,69.4719,25.5112,259.46,97,100,1.88,NO,1675569250
278,kulhudhuffushi,6.6221,73.07,300.06,77,82,1.95,MV,1675569251
279,rocha,-34.4833,-54.3333,292.55,88,100,5.37,UY,1675569252
280,olsztyn,53.7799,20.4942,270.13,87,8,2.67,PL,1675569253
281,kenitra,34.261,-6.5802,277.57,69,0,2.21,MA,1675569254
282,lowestoft,52.4752,1.7516,280.38,85,77,7.31,GB,1675569256
283,bundaberg,-24.85,152.35,305.49,72,80,2.68,AU,1675569257
284,pineville,31.3224,-92.4343,282.09,72,0,2.06,US,1675569258
285,gornyy,55.1153,83.9059,256.36,97,63,1.98,RU,1675569259
286,atar,20.5169,-13.0499,287.69,23,81,4.9,MR,1675569260
287,otofuke,42.9917,143.2003,269.68,67,90,2.84,JP,1675569260
288,guanare,9.0418,-69.7421,298.65,59,81,1.15,VE,1675569261
289,nizhniy baskunchak,48.2198,46.8311,267.63,96,100,2.43,RU,1675569262
290,kathmandu,27.7167,85.3167,285.27,71,20,1.03,NP,1675569006
291,marseille,43.3333,5.5,283.62,76,0,2.26,FR,1675569263
292,kutum,14.2,24.6667,286.69,21,96,2.15,SD,1675569264
293,atasu,48.6814,71.6433,262.04,94,96,1.36,KZ,1675569265
294,mungwi,-10.1732,31.3694,289.31,96,100,1.8,ZM,1675569265
295,urubicha,-15.3833,-62.95,294.55,99,100,0.92,BO,1675569266
296,benjamin hill,30.1667,-111.1,290.59,25,0,1.26,MX,1675569266
297,quatre cocos,-20.2078,57.7625,300.42,81,73,4.1,MU,1675569267
298,biak,-0.9131,122.8766,299.48,73,100,1.68,ID,1675569268
299,columbia,34.0007,-81.0348,275.86,73,0,0.0,US,1675569082
300,saint-pierre,-21.3393,55.4781,300.97,74,0,2.06,RE,1675569268
301,adet,11.2644,37.4888,286.65,54,22,1.93,ET,1675569269
302,barcelos,41.5388,-8.6151,284.09,64,0,2.36,PT,1675569269
303,touros,-5.1989,-35.4608,299.13,82,18,4.67,BR,1675569270
304,monywa,22.1167,95.1333,299.74,36,89,2.68,MM,1675569270
305,sakhipur,24.3,90.1833,295.76,37,79,1.8,BD,1675569271
306,buchanan,5.8808,-10.0467,298.8,91,78,2.28,LR,1675569271
307,aberdeen,57.1437,-2.0981,276.42,75,39,4.12,GB,1675569272
308,saldanha,-33.0117,17.9442,292.18,96,100,5.22,ZA,1675569272
309,baykalsk,51.5058,104.1469,264.18,92,100,1.08,RU,1675569273
310,iringa,-7.7667,35.7,287.77,100,75,0.0,TZ,1675569274
311,pyay,18.8167,95.2167,304.34,15,74,1.43,MM,1675569274
312,byron bay,-28.65,153.6167,304.23,64,46,5.11,AU,1675569040
313,yulara,-25.2406,130.9889,302.43,14,0,5.0,AU,1675569275
314,san jose,37.3394,-121.895,287.85,81,75,6.17,US,1675568849
315,chokurdakh,70.6333,147.9167,241.33,97,100,3.81,RU,1675569276
316,khasan,42.4308,130.6434,271.88,52,31,1.18,RU,1675569276
317,nizwa,22.9333,57.5333,292.48,66,0,0.26,OM,1675569277
318,ereymentau,51.6199,73.1033,256.27,96,98,3.12,KZ,1675569277
319,oriximina,-1.7656,-55.8661,296.39,95,100,1.02,BR,1675569278
320,korla,41.7597,86.1469,272.27,55,1,1.36,CN,1675569278
321,coihaique,-45.5752,-72.0662,293.12,60,0,1.54,CL,1675569279
322,miyang,24.4042,103.4428,295.48,30,22,5.85,CN,1675569279
323,ankang,32.68,109.0172,284.66,36,98,1.02,CN,1675569280
324,elbeuf,49.2867,1.0029,281.65,83,75,1.54,FR,1675569280
325,arman,59.7,150.1667,254.27,80,19,2.4,RU,1675569281
326,cap malheureux,-19.9842,57.6142,300.63,81,77,0.89,MU,1675569281
327,salvador,13.8333,-88.9167,294.37,74,36,1.94,SV,1675569282
328,lavrentiya,65.5833,-171.0,250.09,92,97,3.32,RU,1675569282
329,cabedelo,-6.9811,-34.8339,298.52,82,40,3.49,BR,1675569283
330,sinnamary,5.3833,-52.95,297.91,88,100,6.28,GF,1675569283
331,maceio,-9.6658,-35.7353,297.84,94,20,0.51,BR,1675569284
332,amurzet,47.6967,131.0981,263.15,71,49,3.65,RU,1675569284
333,kharp,66.8014,65.8081,257.82,90,87,3.53,RU,1675569285
334,riyadh,24.6877,46.7219,284.23,64,4,2.48,SA,1675569285
335,laguna,38.421,-121.4238,287.05,81,20,5.66,US,1675569011
336,brae,60.3964,-1.353,279.87,67,47,9.84,GB,1675569286
337,qaqortoq,60.7167,-46.0333,265.96,86,99,7.63,GL,1675569287
338,kudahuvadhoo,2.6708,72.8944,299.64,66,79,1.59,MV,1675569287
339,lincoln,40.8,-96.667,276.09,78,34,1.34,US,1675568835
340,adre,13.4667,22.2,290.51,17,25,4.15,TD,1675569288
341,nakhon thai,17.1006,100.8374,302.85,60,47,1.84,TH,1675569289
342,naze,28.3667,129.4833,289.66,61,99,3.48,JP,1675569038
343,deputatskiy,69.3,139.9,238.12,99,97,1.41,RU,1675569289
344,malakal,9.5334,31.6605,296.17,21,20,3.1,SS,1675569290
345,port hawkesbury,45.6169,-61.3485,260.72,82,100,12.86,CA,1675569291
346,carnarvon,-24.8667,113.6333,301.74,62,23,5.82,AU,1675569291
347,klichka,50.4457,117.996,255.98,83,25,1.11,RU,1675569292
348,ahipara,-35.1667,173.1667,293.76,84,100,3.33,NZ,1675569292
349,tortoli,39.9256,9.6572,283.05,76,40,7.2,IT,1675569293
350,methoni,36.8197,21.7049,279.94,59,81,13.55,GR,1675569293
351,binga,-17.6203,27.3414,294.36,90,100,0.93,ZW,1675569294
352,hedaru,-4.5,37.9,294.1,88,93,1.33,TZ,1675569294
353,maloy,61.9353,5.1136,277.44,77,75,6.03,NO,1675569295
354,batagay-alyta,67.8006,130.4114,242.58,97,100,0.59,RU,1675569295
355,lewiston,44.1003,-70.2148,261.13,58,95,1.9,US,1675569296
356,vila franca do campo,37.7167,-25.4333,287.38,87,1,3.42,PT,1675569296
357,poum,-20.2333,164.0167,302.42,77,100,3.55,NC,1675569297
358,camana,-16.6228,-72.7111,297.39,82,96,1.61,PE,1675569297
359,amapa,1.0,-52.0,294.75,99,99,0.7,BR,1675569298
360,mullingar,53.5333,-7.35,271.3,86,100,2.1,IE,1675569298
361,benghazi,32.1167,20.0667,288.34,61,36,7.4,LY,1675569299
362,nago,26.5881,127.9761,292.39,74,100,5.7,JP,1675569299
363,belmonte,-15.8631,-38.8828,298.53,84,0,3.47,BR,1675569300
364,marsa matruh,31.3525,27.2453,283.26,76,40,6.17,EG,1675569300
365,kaeo,-35.1,173.7833,297.22,82,91,2.95,NZ,1675569301
366,greystones,53.1408,-6.0631,276.92,91,85,3.28,IE,1675569301
367,maningrida,-12.0667,134.2667,301.19,71,99,1.39,AU,1675569302
368,tambilil,5.9622,124.6697,305.09,64,100,2.81,PH,1675569303
369,san cristobal,7.7669,-72.225,294.25,69,58,0.76,VE,1675569304
370,zapolyarnyy,69.4154,30.8136,257.75,100,77,2.55,RU,1675569305
371,broken hill,-31.95,141.4333,298.55,27,0,3.5,AU,1675569306
372,chon buri,13.3,101.3,306.06,84,95,3.13,TH,1675569307
373,nijar,36.9665,-2.206,278.95,46,0,4.12,ES,1675569308
374,lake city,30.1897,-82.6393,284.61,79,15,3.06,US,1675569259
375,orlovskiy,46.8714,42.0592,273.67,99,100,1.67,RU,1675569310
376,ventspils,57.3894,21.5606,264.11,100,0,0.51,LV,1675569310
377,opuwo,-18.0607,13.84,292.66,42,74,1.3,NA,1675569311
378,iacu,-12.7672,-40.2117,293.84,94,6,1.01,BR,1675569312
379,afumati,44.5167,26.2667,272.62,60,0,7.2,RO,1675569312
380,bridlington,54.0831,-0.1919,277.53,73,16,7.17,GB,1675569313
381,loiza,18.4313,-65.8802,297.14,92,40,2.06,PR,1675569314
382,chimoio,-19.1164,33.4833,292.59,91,69,1.25,MZ,1675569315
383,mafinga,-7.25,35.0667,290.22,98,87,1.43,TZ,1675569316
384,sambava,-14.2667,50.1667,297.4,87,98,2.08,MG,1675569317
385,saiha,22.4833,92.9667,298.44,17,27,1.45,IN,1675569318
386,alta floresta,-9.8756,-56.0861,293.81,98,93,0.99,BR,1675569319
387,djenne,13.9061,-4.5533,293.43,14,79,5.56,ML,1675569320
388,bethel,41.3712,-73.414,269.56,57,0,0.0,US,1675569320
389,grindavik,63.8424,-22.4338,278.41,100,100,14.92,IS,1675569321
390,along,28.1667,94.7667,294.94,30,63,0.45,IN,1675569322
391,bathsheba,13.2167,-59.5167,299.49,73,40,9.26,BB,1675569323
392,kimbe,-5.5502,150.1429,302.64,73,71,2.82,PG,1675569323
393,whitianga,-36.8333,175.7,294.7,74,67,4.51,NZ,1675569324
394,awbari,26.5921,12.7805,280.76,32,35,5.19,LY,1675569325
395,sala consilina,40.3912,15.5989,273.92,67,37,8.03,IT,1675569325
396,burns lake,54.2331,-125.7533,273.83,99,100,1.76,CA,1675569326
397,eureka,40.8021,-124.1637,286.49,86,100,4.92,US,1675569327
398,baruun-urt,46.6806,113.2792,259.72,78,18,1.67,MN,1675569327
399,puri,19.8,85.85,295.44,48,6,2.13,IN,1675569328
400,tura,25.5198,90.2201,295.2,37,2,1.51,IN,1675569329
401,bowen,-20.0167,148.2333,302.73,69,100,3.46,AU,1675569329
402,kalmunai,7.4167,81.8167,299.88,75,93,4.68,LK,1675569330
403,malanje,-9.5402,16.341,290.33,98,100,2.18,AO,1675569330
404,chokwe,-24.5333,32.9833,294.5,94,11,2.84,MZ,1675569331
405,dubna,56.7333,37.1667,265.19,97,100,1.61,RU,1675569331
406,vardo,70.3705,31.1107,265.14,93,40,6.17,NO,1675569332
407,sibu,2.3,111.8167,300.32,74,40,1.54,MY,1675569332
408,abha,18.2164,42.5053,281.29,61,0,0.0,SA,1675569270
409,leshukonskoye,64.8989,45.7622,246.85,100,100,1.54,RU,1675569333
410,saint-paul,-21.0096,55.2707,301.21,76,84,0.99,RE,1675569334
411,neiafu,-18.65,-173.9833,302.53,74,75,4.63,TO,1675569334
412,elda,38.4778,-0.7916,284.66,36,0,0.8,ES,1675569335
413,nagato,34.3833,131.2,282.0,49,64,2.77,JP,1675569335
414,little current,45.9793,-81.9248,270.63,77,100,0.89,CA,1675569336
415,fallon,39.4735,-118.7774,279.08,62,0,3.09,US,1675569219
416,cabinda,-5.55,12.2,298.58,90,100,3.37,AO,1675569336
417,codrington,-38.2667,141.9667,291.17,59,99,4.93,AU,1675569337
418,kaitangata,-46.2817,169.8464,290.84,91,100,6.27,NZ,1675569338
419,novikovo,51.1537,37.8879,267.48,95,94,3.86,RU,1675569338
420,harper,4.375,-7.7169,299.1,86,57,3.03,LR,1675569339
421,sola,-13.8833,167.55,298.52,94,100,5.14,VU,1675569339
422,beian,63.6559,9.5683,278.71,70,40,10.8,NO,1675569340
423,villa del rosario,7.8339,-72.4742,297.36,73,40,1.03,CO,1675569340
424,dukat,62.55,155.55,243.8,97,99,1.7,RU,1675569341
425,utete,-7.986,38.758,296.45,96,88,1.0,TZ,1675569341
426,kushiro,42.975,144.3747,269.68,68,40,5.14,JP,1675569341
427,port hardy,50.6996,-127.4199,281.25,93,100,10.8,CA,1675569342
428,bud,39.447,-86.1758,279.14,52,100,7.07,US,1675569342
429,flinders,-34.5833,150.8552,300.4,51,0,5.46,AU,1675569343
430,lagunas,-5.2269,-75.6753,295.6,80,32,1.12,PE,1675569343
431,pochutla,15.7432,-96.4661,295.86,64,16,1.44,MX,1675569344
432,rabak,13.1809,32.74,293.26,21,15,4.6,SD,1675569344
433,bestobe,52.4994,73.0975,252.16,100,100,2.39,KZ,1675569345
434,odweyne,9.4092,45.064,289.4,24,15,3.03,SO,1675569345
435,zalantun,48.0,122.7167,262.94,60,2,2.35,CN,1675569346
436,kidal,18.4411,1.4078,291.01,12,88,4.74,ML,1675569346
437,marly,50.3456,3.5496,282.04,95,100,3.2,FR,1675569347
438,griffith,41.5284,-87.4237,277.18,67,0,7.72,US,1675569263
439,tashla,51.7716,52.7427,260.33,89,100,3.22,RU,1675569348
440,nortelandia,-14.4547,-56.8028,295.33,95,100,0.69,BR,1675569348
441,solwezi,-12.1688,26.3894,288.8,99,100,1.24,ZM,1675569349
442,minab,27.1467,57.0801,291.72,76,47,1.85,IR,1675569349
443,gao,16.6362,1.637,293.28,14,57,5.25,ML,1675569350
444,honningsvag,70.9821,25.9704,271.01,74,100,7.2,NO,1675569351
445,soyo,-6.1349,12.3689,298.17,85,100,3.25,AO,1675569351
446,aklavik,68.2191,-135.0107,234.15,67,0,1.54,CA,1675569351
447,yar-sale,66.8333,70.8333,253.57,100,73,1.91,RU,1675569352
448,imeni poliny osipenko,52.4201,136.4853,253.66,88,100,2.1,RU,1675569353
449,ruteng,-8.6136,120.4721,293.26,84,93,1.09,ID,1675569353
450,vigeland,58.0844,7.305,278.18,86,100,8.0,NO,1675569354
451,port blair,11.6667,92.75,302.17,79,40,5.14,IN,1675569354
452,tromso,69.6496,18.957,274.16,69,100,5.66,NO,1675569345
453,sabang,5.8933,95.3214,300.78,74,47,6.02,ID,1675569356
454,lata,40.1629,-8.3327,278.47,62,0,2.18,PT,1675569356
455,anadyr,64.75,177.4833,243.43,69,0,6.0,RU,1675569356
456,plainview,40.7765,-73.4673,271.19,58,0,6.69,US,1675569238
457,sibolga,1.7427,98.7792,301.34,70,97,1.57,ID,1675569357
458,natal,-5.795,-35.2094,298.51,83,20,1.54,BR,1675569089
459,goose creek,32.981,-80.0326,278.09,80,40,2.06,US,1675569358
460,watertown,42.3709,-71.1828,264.84,35,40,5.14,US,1675569358
461,marovoay,-16.1,46.6333,295.55,96,100,2.34,MG,1675569359
462,prince george,53.9166,-122.753,278.84,65,100,8.75,CA,1675569360
463,mount pleasant,32.7941,-79.8626,278.15,85,0,2.57,US,1675569088
464,cayenne,4.9333,-52.3333,296.17,100,100,1.54,GF,1675569360
465,iskateley,67.6803,53.1512,251.48,100,88,2.18,RU,1675569361
466,adrar,20.5022,-10.0711,285.33,32,81,5.46,MR,1675569361
467,bubaque,11.2833,-15.8333,298.0,53,24,5.67,GW,1675569362
468,belaya gora,68.5333,146.4167,244.88,97,100,2.28,RU,1675569363
469,wajid,3.8093,43.2471,293.47,64,22,5.48,SO,1675569364
470,saint-augustin,51.226,-58.6502,259.01,67,96,13.38,CA,1675569364
471,sur,22.5667,59.5289,295.28,61,0,2.67,OM,1675569365
472,bardiyah,31.7561,25.0865,284.49,74,0,8.15,LY,1675569366
473,komsomolskiy,40.4272,71.7189,277.55,81,100,2.06,UZ,1675569367
474,jacksonville beach,30.2947,-81.3931,288.16,88,75,3.6,US,1675569228
475,abnub,27.2696,31.1511,281.27,48,58,1.54,EG,1675569368
476,kovdor,67.5662,30.4758,252.07,100,84,1.74,RU,1675569370
477,khorixas,-20.3667,14.9667,293.42,57,100,2.1,NA,1675569370
478,chunskiy,56.0815,99.6342,257.94,96,100,0.78,RU,1675569371
479,penzance,50.1186,-5.5371,282.53,89,49,3.15,GB,1675569372
480,tres arroyos,-38.3739,-60.2798,289.36,52,0,4.3,AR,1675569373
481,cabo san lucas,22.8909,-109.9124,294.32,59,0,1.54,MX,1675568795
482,siocon,7.7061,122.1353,302.11,68,100,1.11,PH,1675569374
483,fukuma,33.7667,130.4667,284.42,43,100,2.06,JP,1675569375
484,merke,42.8728,73.1786,274.48,90,84,2.54,KZ,1675569376
485,chipiona,36.7366,-6.437,278.88,87,0,1.54,ES,1675569378
486,labytnangi,66.6572,66.4183,254.4,92,31,2.04,RU,1675569379
487,chifeng,42.2683,118.9636,271.95,28,100,1.58,CN,1675569379
488,north platte,41.1239,-100.7654,273.92,86,0,2.57,US,1675569380
489,kasongo-lunda,-6.4667,16.8167,293.81,98,100,0.93,CD,1675569381
490,santa cruz de la palma,28.6835,-17.7642,290.23,59,75,3.6,ES,1675569382
491,oktyabrskoye,43.0645,44.7417,269.23,100,96,3.0,RU,1675569384
492,alyangula,-13.8483,136.4192,303.46,49,89,1.6,AU,1675569385
493,nishihara,26.1842,127.7558,292.75,73,75,7.72,JP,1675569386
494,leh,34.1667,77.5833,260.48,84,81,0.82,IN,1675569387
495,chiredzi,-21.05,31.6667,293.17,85,28,2.4,ZW,1675569388
496,santo antonio do ica,-3.1022,-67.9397,295.59,99,98,1.01,BR,1675569389
497,hastings,50.8552,0.5729,281.92,55,100,6.79,GB,1675569389
498,jales,-20.2689,-50.5458,294.84,93,100,2.07,BR,1675569390
499,vestmannaeyjar,63.4427,-20.2734,279.15,92,100,16.5,IS,1675569390
500,micheweni,-4.9667,39.8333,300.38,71,97,3.75,TZ,1675569391
501,cidreira,-30.1811,-50.2056,293.66,81,2,2.93,BR,1675569392
502,evensk,61.95,159.2333,254.12,82,99,3.17,RU,1675569392
503,delitzsch,51.5333,12.35,272.78,86,20,3.6,DE,1675569393
504,manadhoo,5.7667,73.3833,300.32,74,93,2.47,MV,1675569393
505,gwadar,25.1216,62.3254,294.86,79,0,6.27,PK,1675569394
506,nouadhibou,20.931,-17.0347,291.14,32,100,7.72,MR,1675569394
507,asfi,32.2994,-9.2372,285.19,73,3,1.52,MA,1675569395
508,havre-saint-pierre,50.2334,-63.5986,256.15,50,40,7.72,CA,1675569395
509,saint-jean-port-joli,47.2171,-70.2658,252.93,87,100,8.99,CA,1675569396
510,yurla,59.3259,54.3223,260.22,98,100,1.35,RU,1675569396
511,solnechnyy,50.7214,136.6319,255.88,89,100,1.28,RU,1675569397
512,hofn,64.2539,-15.2082,275.66,96,100,6.44,IS,1675569397
513,tual,-5.6667,132.75,299.57,86,100,8.97,ID,1675569398
514,sovetskiy,61.3614,63.5842,257.13,97,100,0.39,RU,1675569398
515,lorengau,-2.0226,147.2712,302.17,71,94,2.57,PG,1675569399
516,margate,51.3813,1.3862,281.43,85,100,3.58,GB,1675569399
517,seymchan,62.8833,152.4333,249.51,81,99,3.87,RU,1675569400
518,severnyy,50.677,36.5532,268.17,93,100,4.0,RU,1675569401
519,llodio,43.1432,-2.962,282.54,76,100,1.03,ES,1675569401
520,la suiza,9.8524,-83.6133,292.11,97,87,0.61,CR,1675569402
521,saint-denis,48.9167,2.3333,281.42,76,100,4.63,FR,1675569402
522,santa cruz,-17.8,-63.1667,296.85,88,75,1.54,BO,1675569289
523,hondo,32.45,130.2,282.32,47,63,2.13,JP,1675569403
524,mehamn,71.0357,27.8492,268.1,73,97,8.23,NO,1675569403
525,polunochnoye,60.8697,60.4153,258.69,97,100,0.95,RU,1675569404
526,celestun,20.8667,-90.4,296.03,78,22,6.25,MX,1675569404
527,san policarpo,12.1791,125.5072,300.63,77,100,6.73,PH,1675569405
528,ruston,32.5232,-92.6379,278.05,87,0,3.09,US,1675569362
529,kushmurun,52.4503,64.6311,256.62,93,80,4.05,KZ,1675569406
530,manta,-0.95,-80.7333,299.03,78,40,1.54,EC,1675569406
531,artyom,40.4723,50.333,278.23,78,100,5.68,AZ,1675569407
532,rosarito,32.3333,-117.0333,287.17,79,46,2.56,MX,1675569407
533,kununurra,-15.7667,128.7333,306.14,46,0,5.66,AU,1675569259
534,primorsko-akhtarsk,46.0497,38.1747,273.71,93,100,4.0,RU,1675569318
535,morgan city,29.6994,-91.2068,282.59,87,0,0.0,US,1675569408
536,panaba,21.2833,-88.2667,294.63,80,75,3.91,MX,1675569409
537,wanning,18.8003,110.3967,298.23,75,86,2.93,CN,1675569409
538,ola,59.5833,151.2833,254.34,82,18,2.5,RU,1675569410
539,morris,40.8334,-74.5329,267.76,59,0,1.79,US,1675569133
540,jiexiu,37.0244,111.9125,280.8,31,0,2.53,CN,1675569410
541,sorland,67.667,12.6934,278.07,78,100,14.98,NO,1675569411
542,kashi,39.4547,75.9797,269.71,74,78,4.0,CN,1675569411
543,doha,25.2867,51.5333,290.14,63,0,4.12,QA,1675569412
544,alvorada,-12.48,-49.1247,295.06,92,88,0.78,BR,1675569412
545,auki,-8.7676,160.7034,299.58,89,99,3.32,SB,1675569413
546,sao borja,-28.6606,-56.0044,293.68,44,76,3.1,BR,1675569124
547,papetoai,-17.4961,-149.8729,301.92,77,59,6.4,PF,1675569414
548,puerto baquerizo moreno,-0.9,-89.6,298.91,78,98,3.69,EC,1675569414
549,two rivers,44.1539,-87.5693,272.04,82,0,1.54,US,1675569415
550,itarema,-2.9248,-39.9167,298.54,86,19,5.04,BR,1675569415
551,masallatah,32.6167,14.0,284.46,75,29,6.05,LY,1675569415
552,bilibino,68.0546,166.4372,236.29,97,15,1.49,RU,1675569416
553,erzin,36.9559,36.2,278.33,85,100,3.4,TR,1675569416
554,mecca,21.4267,39.8261,291.98,59,4,1.54,SA,1675569134
555,carlagan,14.975,122.0456,298.98,82,81,5.83,PH,1675569417
556,ixtapa,20.7,-105.2,295.5,86,57,1.24,MX,1675569418
557,trabzon,40.9167,39.8333,277.2,57,75,3.09,TR,1675569418
